{
  "type": "FeatureCollection",
  "features": [
	
    {
      "id": 13,
      "city": "Bamberg",
      "coordinates": [
        10.9,
        49.89
      ]
    },
	{
      "id": 1,
      "city": "Berlin",
      "coordinates": [
        13.4,
        52.52
      ]
    },
	{
      "id": 2,
      "city": "Hamburg",
      "coordinates": [
        9.99,
        53.55
      ]
    },
    {
      "id": 3,
      "city": "München",
      "coordinates": [
        11.58,
        48.13
      ]
    },
    {
      "id": 4,
      "city": "Köln",
      "coordinates": [
        6.96,
        50.94
      ]
    },
    {
      "id": 5,
      "city": "Frankfurt",
      "coordinates": [
        8.68,
        50.11
      ]
    },
    {
      "id": 6,
      "city": "Stuttgart",
      "coordinates": [
        9.18,
        48.77
      ]
    },
    {
      "id": 7,
      "city": "Düsseldorf",
      "coordinates": [
        6.77,
        51.23
      ]
    },
    {
      "id": 8,
      "city": "Dortmund",
      "coordinates": [
        7.46,
        51.51
      ]
    },
    {
      "id": 9,
      "city": "Leipzig",
      "coordinates": [
        12.37,
        51.34
      ]
    },
    {
      "id": 10,
      "city": "Bremen",
      "coordinates": [
        8.8,
        53.08
      ]
    },
    {
      "id": 11,
      "city": "Dresden",
      "coordinates": [
        13.74,
        51.05
      ]
    },
    {
      "id": 12,
      "city": "Hannover",
      "coordinates": [
        9.73,
        52.37
      ]
    },
    {
      "id": 14,
      "city": "Chemnitz",
      "coordinates": [
        12.92,
        50.82
      ]
    }
  ]
}